"S.NO.","STATE","DISTRICT","STATION","TYPE","DATE.YYYY.MM.DD.","TIME.UTC.","RAINFALL.DAILY.CUMULATIVE..0.5.mm.or.more.","Latitude","Longitude","Elevation"
1,"UTTARAKHAND","ALMORA","ALMORA_UKG","AWS","03-07-2023","03:00:00",18.5,29.6,79.665,1568.49
2,"UTTARAKHAND","ALMORA","BHAINSIYA CHHANA _UKG","AWS","03-07-2023","03:00:00",8.5,29.7,79.883,776.36
3,"UTTARAKHAND","ALMORA","BHIKIYASAIN_UKG","AWS","03-07-2023","03:00:00",0.5,29.696,79.269,896.71
4,"UTTARAKHAND","ALMORA","CHAUKHUTIYA_UKG","AWS","03-07-2023","03:00:00",15,29.884,79.35,968.83
5,"UTTARAKHAND","ALMORA","DWARHAT_UKG","AWS","03-07-2023","02:55:00",41.5,29.78,79.432,1386.47
6,"UTTARAKHAND","ALMORA","JAGESHWAR_UKG","AWS","03-07-2023","03:00:00",9.5,29.638,79.853,1803.99
7,"UTTARAKHAND","ALMORA","SITLAKHET_UKG","AWS","03-07-2023","03:00:00",11,29.594,79.544,1820.6
8,"UTTARAKHAND","ALMORA","SULT_UKG","AWS","03-07-2023","03:00:00",16,29.689,79.158,1539.87
9,"UTTARAKHAND","BAGESHWAR","GARUD_UKG","AWS","03-07-2023","03:00:00",1,29.896,79.613,1149.57
10,"UTTARAKHAND","BAGESHWAR","KOSANI_UKG","AWS","03-07-2023","03:00:00",0.5,29.851,79.594,1809.06
11,"UTTARAKHAND","BAGESHWAR","SONG_UKG","AWS","03-07-2023","03:00:00",4,30.039,79.952,1596.07
12,"UTTARAKHAND","CHAMOLI","CHAMOLI","AWS","03-07-2023","03:00:00",8,30.4,79.317,1212.67
13,"UTTARAKHAND","CHAMOLI","DEWAL_UKG","AWS","03-07-2023","03:00:00",1,30.076,79.482,1511.13
14,"UTTARAKHAND","CHAMOLI","GHAT_UKG","AWS","03-07-2023","03:00:00",1,30.256,79.454,1658.17
15,"UTTARAKHAND","CHAMOLI","GOCHAR_UKG","AWS","03-07-2023","03:00:00",1.5,30.292,79.156,769.55
16,"UTTARAKHAND","CHAMOLI","KARNAPRAYAG_UKG","AWS","03-07-2023","03:00:00",9,30.259,79.218,770.17
17,"UTTARAKHAND","CHAMOLI","THARALI_UKG","AWS","03-07-2023","03:00:00",1,30.15,79.409,1496.86
18,"UTTARAKHAND","CHAMPAWAT","CHALTHI_UKG","AWS","03-07-2023","03:00:00",13,29.197,80.09,718.12
19,"UTTARAKHAND","CHAMPAWAT","PANCHESHWAR_UKG","AWS","03-07-2023","03:00:00",0.5,29.447,80.243,546.73
20,"UTTARAKHAND","DEHRADUN","DEHRADUN","AWS","03-07-2023","03:00:00",8.5,30.32,78.05,672.36
21,"UTTARAKHAND","DEHRADUN","KALSI _UKG","AWS","03-07-2023","03:00:00",19.5,30.539,77.852,877.17
22,"UTTARAKHAND","DEHRADUN","KOTI_UKG","AWS","03-07-2023","03:00:00",0.5,30.61,77.782,819.01
23,"UTTARAKHAND","HARIDWAR","BHAGWANPUR _UKG","AWS","03-07-2023","03:00:00",12,29.805,77.911,267.9
24,"UTTARAKHAND","HARIDWAR","NARSAN_UKG","AWS","03-07-2023","03:00:00",4,29.787,77.857,265.66
25,"UTTARAKHAND","NAINITAL","BETALGHAT_UKG","AWS","03-07-2023","03:00:00",2,29.552,79.353,855.72
26,"UTTARAKHAND","NAINITAL","KALADHUNGI_UKG","AWS","03-07-2023","03:00:00",52,29.329,79.51,885.66
27,"UTTARAKHAND","NAINITAL","MUKTESHWAR","AWS","03-07-2023","03:00:00",2,29.467,79.65,2227.11
28,"UTTARAKHAND","NAINITAL","RAMNAGAR_UKG","AWS","03-07-2023","03:00:00",2,29.396,79.136,352.71
29,"UTTARAKHAND","PAURI_GARHWAL","BHARSAR","AWS","03-07-2023","03:00:00",25.5,30.05,79,2367.47
30,"UTTARAKHAND","PAURI_GARHWAL","LANSDOWN_UKG","AWS","03-07-2023","03:00:00",2,29.84,78.686,1740.53
31,"UTTARAKHAND","PAURI_GARHWAL","NAINIDANDA_UKG","AWS","03-07-2023","03:00:00",1.5,29.738,79.013,1696.15
32,"UTTARAKHAND","PAURI_GARHWAL","PAURI_UKG","AWS","03-07-2023","03:00:00",2,30.153,78.769,1744.82
33,"UTTARAKHAND","PAURI_GARHWAL","RIKHNIKHAL_UKG","AWS","03-07-2023","03:00:00",2.5,29.772,78.874,1406.79
34,"UTTARAKHAND","PAURI_GARHWAL","SYUNSI _UKG","AWS","03-07-2023","03:00:00",1,29.893,79.026,1286.39
35,"UTTARAKHAND","PAURI_GARHWAL","THAILISAIN_UKG","AWS","03-07-2023","03:00:00",9,30.021,79.048,1697.8
36,"UTTARAKHAND","PITHORAGARH","DHARCHULA_UKG","AWS","03-07-2023","03:00:00",1,29.85,80.545,913.69
37,"UTTARAKHAND","PITHORAGARH","DIDIHAT_UKG","AWS","03-07-2023","03:00:00",11.5,29.802,80.263,1518.11
38,"UTTARAKHAND","PITHORAGARH","GANGOLIHAT_UKG","AWS","03-07-2023","03:00:00",0.5,29.658,80.042,1707.25
39,"UTTARAKHAND","RUDRAPRAYAG","JAKHOLI_UKG","AWS","03-07-2023","03:00:00",16.5,30.352,78.945,1201.96
40,"UTTARAKHAND","UDHAM_SINGH_NAGAR","BAJPUR_UKG","AWS","03-07-2023","02:50:00",9.5,29.135,79.122,220.21
41,"UTTARAKHAND","UDHAM_SINGH_NAGAR","JASPUR","AWS","03-07-2023","03:00:00",49,29.27,78.83,243.94
42,"UTTARAKHAND","UDHAM_SINGH_NAGAR","KASHIPUR_UKG","AWS","03-07-2023","03:00:00",11.5,29.211,78.962,236.27
43,"UTTARAKHAND","UTTARKASHI","CHINYALISAUR_UKG","AWS","03-07-2023","03:00:00",0.5,30.577,78.33,833.61
44,"UTTARAKHAND","UTTARKASHI","JAN KI CHATTI_UKG","AWS","03-07-2023","02:45:00",1,30.978,78.441,2571.06
45,"UTTARAKHAND","UTTARKASHI","MORI _UKG","AWS","03-07-2023","03:00:00",4,31.021,78.047,1270.74
46,"UTTARAKHAND","UTTARKASHI","PUROLA","AWS","03-07-2023","03:00:00",2,30.86,78,2567.22
47,"UTTARAKHAND","UTTARKASHI","RAJGARHI_UKG","AWS","03-07-2023","03:00:00",17.5,30.84,78.241,1728.98
48,"UTTARAKHAND","UTTARKASHI","UTTAR_KASHI","AWS","03-07-2023","03:00:00",5.5,30.72,78.43,1319.14
